 [
  {
    "id": "d75385e9-fb76-4421-9cb5-49bca48160d0",
    "name": "을지로 골목집",
    "region": "을지로",
    "lat": 37.5662,
    "lng": 126.9918,
    "image": "https://placehold.co/800x500?text=JU-DO+1",
    "primaryCurator": "soju_anju",
    "curators": ["soju_anju", "노포헌터", "힙술집"],
    "tags": ["노포", "소주", "2차"],
    "comment": "을지로에서 소주 한잔하기 좋은 대표 노포.",
    "savedCount": 128,
    "createdAt": "2026-03-05",
    "address": "서울 중구 을지로 일대"
  },
  {
    "id": 2,
    "name": "만선호프",
    "region": "을지로",
    "lat": 37.5668,
    "lng": 126.9899,
    "image": "https://placehold.co/800x500?text=JU-DO+2",
    "primaryCurator": "노포헌터",
    "curators": ["노포헌터", "soju_anju"],
    "tags": ["맥주", "노포", "2차"],
    "comment": "을지로 노포 호프의 상징 같은 곳.",
    "savedCount": 203,
    "createdAt": "2026-03-06",
    "address": "서울 중구 을지로입구 인근"
  },
  {
    "id": 3,
    "name": "청와옥 을지로점",
    "region": "을지로",
    "lat": 37.5659,
    "lng": 126.9907,
    "image": "https://placehold.co/800x500?text=JU-DO+3",
    "primaryCurator": "soju_anju",
    "curators": ["soju_anju", "노포헌터"],
    "tags": ["안주맛집", "소주", "1차"],
    "comment": "해장국도 좋지만 술안주로도 탄탄한 곳.",
    "savedCount": 84,
    "createdAt": "2026-03-07",
    "address": "서울 중구 을지로3가"
  },
  {
    "id": 4,
    "name": "을지OB베어",
    "region": "을지로",
    "lat": 37.5661,
    "lng": 126.9923,
    "image": "https://placehold.co/800x500?text=JU-DO+4",
    "primaryCurator": "노포헌터",
    "curators": ["노포헌터", "힙술집"],
    "tags": ["맥주", "노포", "심야"],
    "comment": "을지로 감성을 가장 빠르게 이해할 수 있는 맥주집.",
    "savedCount": 110,
    "createdAt": "2026-03-08",
    "address": "서울 중구 을지로4가"
  },
  {
    "id": 5,
    "name": "을지 장칼집",
    "region": "을지로",
    "lat": 37.5665,
    "lng": 126.9931,
    "image": "https://placehold.co/800x500?text=JU-DO+5",
    "primaryCurator": "soju_anju",
    "curators": ["soju_anju"],
    "tags": ["소주", "안주맛집", "1차"],
    "comment": "칼칼한 안주에 소주가 잘 붙는 편한 술집.",
    "savedCount": 61,
    "createdAt": "2026-03-09",
    "address": "서울 중구 을지로4가"
  },
  {
    "id": 6,
    "name": "충무로 포차거리점",
    "region": "을지로",
    "lat": 37.5618,
    "lng": 126.9948,
    "image": "https://placehold.co/800x500?text=JU-DO+6",
    "primaryCurator": "힙술집",
    "curators": ["힙술집", "soju_anju"],
    "tags": ["소주", "힙함", "2차"],
    "comment": "노포와 트렌드 사이 느낌으로 가볍게 가기 좋다.",
    "savedCount": 57,
    "createdAt": "2026-03-10",
    "address": "서울 중구 충무로 인근"
  },
  {
    "id": 7,
    "name": "성수 하이볼바",
    "region": "성수",
    "lat": 37.5447,
    "lng": 127.0557,
    "image": "https://placehold.co/800x500?text=JU-DO+7",
    "primaryCurator": "힙술집",
    "curators": ["힙술집", "성수술꾼"],
    "tags": ["하이볼", "힙함", "데이트"],
    "comment": "성수에서 가볍게 2차 가기 좋은 트렌디 바.",
    "savedCount": 76,
    "createdAt": "2026-03-08",
    "address": "서울 성동구 성수동1가"
  },
  {
    "id": 8,
    "name": "성수 와인룸",
    "region": "성수",
    "lat": 37.5442,
    "lng": 127.0572,
    "image": "https://placehold.co/800x500?text=JU-DO+8",
    "primaryCurator": "와인바헌터",
    "curators": ["와인바헌터", "힙술집"],
    "tags": ["와인", "분위기", "데이트"],
    "comment": "분위기 좋은 성수 와인바.",
    "savedCount": 92,
    "createdAt": "2026-03-09",
    "address": "서울 성동구 성수동2가"
  },
  {
    "id": 9,
    "name": "성수 골목포차",
    "region": "성수",
    "lat": 37.5451,
    "lng": 127.0546,
    "image": "https://placehold.co/800x500?text=JU-DO+9",
    "primaryCurator": "성수술꾼",
    "curators": ["성수술꾼", "soju_anju"],
    "tags": ["소주", "안주맛집", "1차"],
    "comment": "성수에서 흔치 않은 편한 포차 스타일.",
    "savedCount": 68,
    "createdAt": "2026-03-10",
    "address": "서울 성동구 성수이로"
  },
  {
    "id": 10,
    "name": "서울숲 미드나잇바",
    "region": "성수",
    "lat": 37.5466,
    "lng": 127.0388,
    "image": "https://placehold.co/800x500?text=JU-DO+10",
    "primaryCurator": "힙술집",
    "curators": ["힙술집", "와인바헌터"],
    "tags": ["하이볼", "분위기", "심야"],
    "comment": "서울숲 근처에서 분위기 챙기기 좋은 밤 술집.",
    "savedCount": 71,
    "createdAt": "2026-03-11",
    "address": "서울 성동구 서울숲2길"
  },
  {
    "id": 11,
    "name": "성수 연탄구이주점",
    "region": "성수",
    "lat": 37.5436,
    "lng": 127.0565,
    "image": "https://placehold.co/800x500?text=JU-DO+11",
    "primaryCurator": "soju_anju",
    "curators": ["soju_anju", "성수술꾼"],
    "tags": ["소주", "안주맛집", "회식"],
    "comment": "고기 안주가 탄탄해서 1차 회식용으로 좋다.",
    "savedCount": 64,
    "createdAt": "2026-03-12",
    "address": "서울 성동구 성수동"
  },
  {
    "id": 12,
    "name": "성수 작은사케집",
    "region": "성수",
    "lat": 37.5449,
    "lng": 127.0581,
    "image": "https://placehold.co/800x500?text=JU-DO+12",
    "primaryCurator": "와인바헌터",
    "curators": ["와인바헌터", "성수술꾼"],
    "tags": ["분위기", "데이트", "심야"],
    "comment": "조용한 분위기로 대화하기 좋은 작은 술집.",
    "savedCount": 49,
    "createdAt": "2026-03-13",
    "address": "서울 성동구 성수동2가"
  },
  {
    "id": 13,
    "name": "강남 포차연구소",
    "region": "강남",
    "lat": 37.4987,
    "lng": 127.0277,
    "image": "https://placehold.co/800x500?text=JU-DO+13",
    "primaryCurator": "soju_anju",
    "curators": ["soju_anju", "힙술집", "와인바헌터", "노포헌터"],
    "tags": ["안주맛집", "소주", "1차"],
    "comment": "강남에서 안주 실패 없는 1차 술집.",
    "savedCount": 148,
    "createdAt": "2026-03-10",
    "address": "서울 강남구 역삼동"
  },
  {
    "id": 14,
    "name": "강남 심야사시미",
    "region": "강남",
    "lat": 37.4979,
    "lng": 127.0291,
    "image": "https://placehold.co/800x500?text=JU-DO+14",
    "primaryCurator": "와인바헌터",
    "curators": ["와인바헌터", "soju_anju"],
    "tags": ["해산물", "분위기", "심야"],
    "comment": "강남 심야 해산물 안주로 좋은 곳.",
    "savedCount": 54,
    "createdAt": "2026-03-11",
    "address": "서울 강남구 강남대로 인근"
  },
  {
    "id": 15,
    "name": "역삼 하이볼클럽",
    "region": "강남",
    "lat": 37.5002,
    "lng": 127.0363,
    "image": "https://placehold.co/800x500?text=JU-DO+15",
    "primaryCurator": "힙술집",
    "curators": ["힙술집", "와인바헌터"],
    "tags": ["하이볼", "힙함", "2차"],
    "comment": "강남에서 가볍게 넘어가기 좋은 하이볼 바.",
    "savedCount": 88,
    "createdAt": "2026-03-12",
    "address": "서울 강남구 역삼동"
  },
  {
    "id": 16,
    "name": "신논현 조개포차",
    "region": "강남",
    "lat": 37.5043,
    "lng": 127.0248,
    "image": "https://placehold.co/800x500?text=JU-DO+16",
    "primaryCurator": "soju_anju",
    "curators": ["soju_anju", "힙술집"],
    "tags": ["해산물", "소주", "안주맛집"],
    "comment": "시원한 해산물 안주 찾을 때 실패 적은 편.",
    "savedCount": 74,
    "createdAt": "2026-03-13",
    "address": "서울 강남구 신논현역 인근"
  },
  {
    "id": 17,
    "name": "강남 와인챔버",
    "region": "강남",
    "lat": 37.4972,
    "lng": 127.0316,
    "image": "https://placehold.co/800x500?text=JU-DO+17",
    "primaryCurator": "와인바헌터",
    "curators": ["와인바헌터"],
    "tags": ["와인", "데이트", "분위기"],
    "comment": "조용하고 안정적인 분위기의 강남 와인바.",
    "savedCount": 67,
    "createdAt": "2026-03-14",
    "address": "서울 강남구 역삼동"
  },
  {
    "id": 18,
    "name": "논현 야장포차",
    "region": "강남",
    "lat": 37.5112,
    "lng": 127.0223,
    "image": "https://placehold.co/800x500?text=JU-DO+18",
    "primaryCurator": "힙술집",
    "curators": ["힙술집", "soju_anju"],
    "tags": ["소주", "힙함", "2차"],
    "comment": "강남권에서 야장 느낌 챙기기 좋은 곳.",
    "savedCount": 59,
    "createdAt": "2026-03-15",
    "address": "서울 강남구 논현동"
  },
  {
    "id": 19,
    "name": "연남 포도술집",
    "region": "연남",
    "lat": 37.5612,
    "lng": 126.9228,
    "image": "https://placehold.co/800x500?text=JU-DO+19",
    "primaryCurator": "와인바헌터",
    "curators": ["와인바헌터", "힙술집"],
    "tags": ["와인", "데이트", "분위기"],
    "comment": "연남에서 분위기 좋은 와인 한잔하기 적당하다.",
    "savedCount": 73,
    "createdAt": "2026-03-10",
    "address": "서울 마포구 연남동"
  },
  {
    "id": 20,
    "name": "연남 작은포차",
    "region": "연남",
    "lat": 37.5621,
    "lng": 126.9251,
    "image": "https://placehold.co/800x500?text=JU-DO+20",
    "primaryCurator": "힙술집",
    "curators": ["힙술집", "soju_anju"],
    "tags": ["소주", "힙함", "1차"],
    "comment": "연남 감성 살리면서도 편하게 마실 수 있는 포차.",
    "savedCount": 66,
    "createdAt": "2026-03-11",
    "address": "서울 마포구 연남동"
  },
  {
    "id": 21,
    "name": "연남 심야바다",
    "region": "연남",
    "lat": 37.5607,
    "lng": 126.924,
    "image": "https://placehold.co/800x500?text=JU-DO+21",
    "primaryCurator": "soju_anju",
    "curators": ["soju_anju", "와인바헌터"],
    "tags": ["해산물", "소주", "심야"],
    "comment": "해산물 안주와 소주 조합이 안정적인 심야 술집.",
    "savedCount": 58,
    "createdAt": "2026-03-12",
    "address": "서울 마포구 연남동"
  },
  {
    "id": 22,
    "name": "연남 루프탑바",
    "region": "연남",
    "lat": 37.563,
    "lng": 126.9231,
    "image": "https://placehold.co/800x500?text=JU-DO+22",
    "primaryCurator": "힙술집",
    "curators": ["힙술집", "와인바헌터"],
    "tags": ["하이볼", "분위기", "데이트"],
    "comment": "가볍게 분위기 내기 좋은 연남 루프탑 바.",
    "savedCount": 82,
    "createdAt": "2026-03-13",
    "address": "서울 마포구 연남동"
  },
  {
    "id": 23,
    "name": "망원 골목선술집",
    "region": "망원",
    "lat": 37.5563,
    "lng": 126.9087,
    "image": "https://placehold.co/800x500?text=JU-DO+23",
    "primaryCurator": "노포헌터",
    "curators": ["노포헌터", "soju_anju"],
    "tags": ["노포", "소주", "혼술"],
    "comment": "망원에서 혼자 한잔하기에도 어색하지 않은 곳.",
    "savedCount": 47,
    "createdAt": "2026-03-10",
    "address": "서울 마포구 망원동"
  },
  {
    "id": 24,
    "name": "망원 해물포차",
    "region": "망원",
    "lat": 37.5552,
    "lng": 126.9104,
    "image": "https://placehold.co/800x500?text=JU-DO+24",
    "primaryCurator": "soju_anju",
    "curators": ["soju_anju", "노포헌터"],
    "tags": ["해산물", "소주", "1차"],
    "comment": "망원에서 싱싱한 해산물 안주 찾을 때 좋다.",
    "savedCount": 53,
    "createdAt": "2026-03-11",
    "address": "서울 마포구 망원동"
  },
  {
    "id": 25,
    "name": "망원 하이볼룸",
    "region": "망원",
    "lat": 37.5568,
    "lng": 126.9098,
    "image": "https://placehold.co/800x500?text=JU-DO+25",
    "primaryCurator": "힙술집",
    "curators": ["힙술집"],
    "tags": ["하이볼", "힙함", "데이트"],
    "comment": "작지만 감도 있는 하이볼 위주 술집.",
    "savedCount": 41,
    "createdAt": "2026-03-12",
    "address": "서울 마포구 망원동"
  },
  {
    "id": 26,
    "name": "망원 밤선술집",
    "region": "망원",
    "lat": 37.5574,
    "lng": 126.9079,
    "image": "https://placehold.co/800x500?text=JU-DO+26",
    "primaryCurator": "성수술꾼",
    "curators": ["성수술꾼", "힙술집"],
    "tags": ["분위기", "2차", "심야"],
    "comment": "2차 이후 늦게까지 가볍게 머물기 좋다.",
    "savedCount": 36,
    "createdAt": "2026-03-13",
    "address": "서울 마포구 망원동"
  },
  {
    "id": 27,
    "name": "종로 국밥주점",
    "region": "종로",
    "lat": 37.5712,
    "lng": 126.9903,
    "image": "https://placehold.co/800x500?text=JU-DO+27",
    "primaryCurator": "노포헌터",
    "curators": ["노포헌터", "soju_anju"],
    "tags": ["노포", "소주", "안주맛집"],
    "comment": "국밥과 소주 조합 좋아하는 사람에게 확실한 픽.",
    "savedCount": 62,
    "createdAt": "2026-03-11",
    "address": "서울 종로구 종로3가"
  },
  {
    "id": 28,
    "name": "종로 야장호프",
    "region": "종로",
    "lat": 37.5704,
    "lng": 126.9916,
    "image": "https://placehold.co/800x500?text=JU-DO+28",
    "primaryCurator": "노포헌터",
    "curators": ["노포헌터", "힙술집"],
    "tags": ["맥주", "노포", "야장"],
    "comment": "종로 특유의 북적한 분위기를 즐기기 좋은 호프집.",
    "savedCount": 79,
    "createdAt": "2026-03-12",
    "address": "서울 종로구 종로3가"
  },
  {
    "id": 29,
    "name": "익선 와인소굴",
    "region": "종로",
    "lat": 37.5741,
    "lng": 126.9895,
    "image": "https://placehold.co/800x500?text=JU-DO+29",
    "primaryCurator": "와인바헌터",
    "curators": ["와인바헌터", "힙술집"],
    "tags": ["와인", "분위기", "데이트"],
    "comment": "익선동에서 데이트 무드 챙기기 좋은 와인바.",
    "savedCount": 83,
    "createdAt": "2026-03-13",
    "address": "서울 종로구 익선동"
  },
  {
    "id": 30,
    "name": "종로 밤포차",
    "region": "종로",
    "lat": 37.5698,
    "lng": 126.9921,
    "image": "https://placehold.co/800x500?text=JU-DO+30",
    "primaryCurator": "soju_anju",
    "curators": ["soju_anju", "노포헌터", "힙술집"],
    "tags": ["소주", "2차", "심야"],
    "comment": "종로에서 2차로 무난하게 풀기 좋은 술집.",
    "savedCount": 69,
    "createdAt": "2026-03-14",
    "address": "서울 종로구 종로3가"
  }
]